{
"type": "FeatureCollection",
"name": "BATH_BathingLocations_15082018",
"crs": { "type": "name", "properties": { "name": "urn:ogc:def:crs:OGC:1.3:CRS84" } },
"features": [
{ "type": "Feature", "properties": { "OBJECTID": 1, "BWID": "IENWBWC010_0000_0100", "Name": "Murvagh", "CODE": "PA3_0025", "Location": "Donegal", "LAName": "DONEGAL COUNTY COUNCIL", "Province": "Ulster", "WaterType": "Coastal Waterbody", "RBDCode2": "inwerbd", "Easting": 189312.0, "Northing": 372975.0, "Processing": "Active" }, "geometry": { "type": "Point", "coordinates": [ -8.166136492218884, 54.604895896823891 ] } },
{ "type": "Feature", "properties": { "OBJECTID": 2, "BWID": "IENWBWC010_0000_0200", "Name": "Rossnowlagh", "CODE": "PA3_0033", "Location": "Donegal", "LAName": "DONEGAL COUNTY COUNCIL", "Province": "Ulster", "WaterType": "Coastal Waterbody", "RBDCode2": "inwerbd", "Easting": 186120.0, "Northing": 367273.0, "Processing": "Active" }, "geometry": { "type": "Point", "coordinates": [ -8.215260131398519, 54.553596721422224 ] } },
{ "type": "Feature", "properties": { "OBJECTID": 3, "BWID": "IENWBWC010_0000_0300", "Name": "Mullaghmore Beach", "CODE": "PA3_0108", "Location": "Sligo", "LAName": "SLIGO COUNTY COUNCIL", "Province": "Connaught", "WaterType": "Coastal Waterbody", "RBDCode2": "inwerbd", "Easting": 170950.0, "Northing": 356957.0, "Processing": "Active" }, "geometry": { "type": "Point", "coordinates": [ -8.44868761605829, 54.460284933417654 ] } },
{ "type": "Feature", "properties": { "OBJECTID": 4, "BWID": "IENWBWC020_0000_0100", "Name": "Bundoran", "CODE": "PA3_0031", "Location": "Donegal", "LAName": "DONEGAL COUNTY COUNCIL", "Province": "Ulster", "WaterType": "Coastal Waterbody", "RBDCode2": "inwerbd", "Easting": 182007.0, "Northing": 359383.0, "Processing": "Active" }, "geometry": { "type": "Point", "coordinates": [ -8.278343193562659, 54.482590315786105 ] } },
{ "type": "Feature", "properties": { "OBJECTID": 5, "BWID": "IENWBWC070_0000_0100", "Name": "Fintra", "CODE": "PA3_0039", "Location": "Donegal", "LAName": "DONEGAL COUNTY COUNCIL", "Province": "Ulster", "WaterType": "Coastal Waterbody", "RBDCode2": "inwerbd", "Easting": 168546.0, "Northing": 376437.0, "Processing": "Active" }, "geometry": { "type": "Point", "coordinates": [ -8.487836724088668, 54.635127827934419 ] } },
{ "type": "Feature", "properties": { "OBJECTID": 6, "BWID": "IENWBWC100_0000_0100", "Name": "Ballyhiernan, Fanad", "CODE": "PA3_0027", "Location": "Donegal", "LAName": "DONEGAL COUNTY COUNCIL", "Province": "Ulster", "WaterType": "Coastal Waterbody", "RBDCode2": "inwerbd", "Easting": 218930.0, "Northing": 444800.0, "Processing": "Active" }, "geometry": { "type": "Point", "coordinates": [ -7.703103691786452, 55.249823837568911 ] } },
{ "type": "Feature", "properties": { "OBJECTID": 7, "BWID": "IENWBWC100_0000_0200", "Name": "Drumnatinny", "CODE": "PA3_0037", "Location": "Donegal", "LAName": "DONEGAL COUNTY COUNCIL", "Province": "Ulster", "WaterType": "Coastal Waterbody", "RBDCode2": "inwerbd", "Easting": 194472.0, "Northing": 435095.0, "Processing": "Active" }, "geometry": { "type": "Point", "coordinates": [ -8.087485264750724, 55.162982394863633 ] } },
{ "type": "Feature", "properties": { "OBJECTID": 8, "BWID": "IENWBWC100_0000_0300", "Name": "Magheraroarty", "CODE": "PA3_0141", "Location": "Donegal", "LAName": "DONEGAL COUNTY COUNCIL", "Province": "Ulster", "WaterType": "Coastal Waterbody", "RBDCode2": "inwerbd", "Easting": 189110.0008, "Northing": 433210.0025, "Processing": "Active" }, "geometry": { "type": "Point", "coordinates": [ -8.171539754235875, 55.145961769587082 ] } },
{ "type": "Feature", "properties": { "OBJECTID": 9, "BWID": "IENWBWC120_0000_0100", "Name": "Naran", "CODE": "PA3_0040", "Location": "Donegal", "LAName": "DONEGAL COUNTY COUNCIL", "Province": "Ulster", "WaterType": "Coastal Waterbody", "RBDCode2": "inwerbd", "Easting": 171092.0, "Northing": 399292.0, "Processing": "Active" }, "geometry": { "type": "Point", "coordinates": [ -8.450682696804312, 54.840577910958615 ] } },
{ "type": "Feature", "properties": { "OBJECTID": 10, "BWID": "IENWBWC120_0000_0200", "Name": "Dooey", "CODE": "PA3_0142", "Location": "Donegal", "LAName": "DONEGAL COUNTY COUNCIL", "Province": "Ulster", "WaterType": "Coastal Waterbody", "RBDCode2": "inwerbd", "Easting": 174910.0019, "Northing": 402930.001, "Processing": "Active" }, "geometry": { "type": "Point", "coordinates": [ -8.391576029059049, 54.873462123835516 ] } },
{ "type": "Feature", "properties": { "OBJECTID": 11, "BWID": "IENWBWC160_0000_0100", "Name": "Portarthur, Derrybeg", "CODE": "PA3_0038", "Location": "Donegal", "LAName": "DONEGAL COUNTY COUNCIL", "Province": "Ulster", "WaterType": "Coastal Waterbody", "RBDCode2": "inwerbd", "Easting": 179962.0, "Northing": 428121.0, "Processing": "Active" }, "geometry": { "type": "Point", "coordinates": [ -8.314645666812609, 55.099965515888812 ] } },
{ "type": "Feature", "properties": { "OBJECTID": 12, "BWID": "IENWBWC160_0000_0200", "Name": "Carrickfinn", "CODE": "PA3_0043", "Location": "Donegal", "LAName": "DONEGAL COUNTY COUNCIL", "Province": "Ulster", "WaterType": "Coastal Waterbody", "RBDCode2": "inwerbd", "Easting": 177786.0, "Northing": 421728.0, "Processing": "Active" }, "geometry": { "type": "Point", "coordinates": [ -8.348233280616572, 55.042449380787666 ] } },
{ "type": "Feature", "properties": { "OBJECTID": 13, "BWID": "IENWBWC190_0000_0100", "Name": "Downings", "CODE": "PA3_0028", "Location": "Donegal", "LAName": "DONEGAL COUNTY COUNCIL", "Province": "Ulster", "WaterType": "Coastal Waterbody", "RBDCode2": "inwerbd", "Easting": 210126.0, "Northing": 438434.0, "Processing": "Active" }, "geometry": { "type": "Point", "coordinates": [ -7.841762340382563, 55.192902113515011 ] } },
{ "type": "Feature", "properties": { "OBJECTID": 14, "BWID": "IENWBWC190_0000_0200", "Name": "Marble Hill", "CODE": "PA3_0035", "Location": "Donegal", "LAName": "DONEGAL COUNTY COUNCIL", "Province": "Ulster", "WaterType": "Coastal Waterbody", "RBDCode2": "inwerbd", "Easting": 206473.0, "Northing": 436636.0, "Processing": "Active" }, "geometry": { "type": "Point", "coordinates": [ -7.899160022196958, 55.176813176055241 ] } },
{ "type": "Feature", "properties": { "OBJECTID": 15, "BWID": "IENWBWC190_0000_0300", "Name": "Portnablagh", "CODE": "PA3_0036", "Location": "Donegal", "LAName": "DONEGAL COUNTY COUNCIL", "Province": "Ulster", "WaterType": "Coastal Waterbody", "RBDCode2": "inwerbd", "Easting": 204684.0, "Northing": 437103.0, "Processing": "Active" }, "geometry": { "type": "Point", "coordinates": [ -7.927230623347945, 55.181027949629474 ] } },
{ "type": "Feature", "properties": { "OBJECTID": 16, "BWID": "IENWBWC190_0000_0400", "Name": "Killahoey", "CODE": "PA3_0026", "Location": "Donegal", "LAName": "DONEGAL COUNTY COUNCIL", "Province": "Ulster", "WaterType": "Coastal Waterbody", "RBDCode2": "inwerbd", "Easting": 203076.0, "Northing": 437766.0, "Processing": "Active" }, "geometry": { "type": "Point", "coordinates": [ -7.95246365021245, 55.186995693909218 ] } },
{ "type": "Feature", "properties": { "OBJECTID": 17, "BWID": "IENWBWC220_0000_0100", "Name": "Lisfannon", "CODE": "PA3_0034", "Location": "Donegal", "LAName": "DONEGAL COUNTY COUNCIL", "Province": "Ulster", "WaterType": "Coastal Waterbody", "RBDCode2": "inwerbd", "Easting": 233152.0, "Northing": 427927.0, "Processing": "Active" }, "geometry": { "type": "Point", "coordinates": [ -7.481460948030795, 55.097523180937799 ] } },
{ "type": "Feature", "properties": { "OBJECTID": 18, "BWID": "IENWBWC220_0000_0200", "Name": "Rathmullan", "CODE": "PA3_0029", "Location": "Donegal", "LAName": "DONEGAL COUNTY COUNCIL", "Province": "Ulster", "WaterType": "Coastal Waterbody", "RBDCode2": "inwerbd", "Easting": 230071.0, "Northing": 427806.0, "Processing": "Active" }, "geometry": { "type": "Point", "coordinates": [ -7.52973249530412, 55.096632347861757 ] } },
{ "type": "Feature", "properties": { "OBJECTID": 19, "BWID": "IENWBWC220_0000_0300", "Name": "Portsalon", "CODE": "PA3_0032", "Location": "Donegal", "LAName": "DONEGAL COUNTY COUNCIL", "Province": "Ulster", "WaterType": "Coastal Waterbody", "RBDCode2": "inwerbd", "Easting": 225049.0, "Northing": 438268.0, "Processing": "Active" }, "geometry": { "type": "Point", "coordinates": [ -7.607470750469812, 55.1908813984003 ] } },
{ "type": "Feature", "properties": { "OBJECTID": 20, "BWID": "IENWBWC230_0000_0100", "Name": "Stroove", "CODE": "PA3_0042", "Location": "Donegal", "LAName": "DONEGAL COUNTY COUNCIL", "Province": "Ulster", "WaterType": "Coastal Waterbody", "RBDCode2": "inwerbd", "Easting": 268283.0, "Northing": 442783.0, "Processing": "Active" }, "geometry": { "type": "Point", "coordinates": [ -6.927674165103674, 55.227354144192027 ] } },
{ "type": "Feature", "properties": { "OBJECTID": 21, "BWID": "IENWBWC230_0000_0200", "Name": "Culdaff", "CODE": "PA3_0041", "Location": "Donegal", "LAName": "DONEGAL COUNTY COUNCIL", "Province": "Ulster", "WaterType": "Coastal Waterbody", "RBDCode2": "inwerbd", "Easting": 254278.0, "Northing": 450007.0, "Processing": "Active" }, "geometry": { "type": "Point", "coordinates": [ -7.146344048727302, 55.29396985678337 ] } },
{ "type": "Feature", "properties": { "OBJECTID": 22, "BWID": "IENWBWT220_0400_0100", "Name": "Lady's Bay, Buncrana", "CODE": "PA3_0030", "Location": "Donegal", "LAName": "DONEGAL COUNTY COUNCIL", "Province": "Ulster", "WaterType": "Coastal Waterbody", "RBDCode2": "inwerbd", "Easting": 234270.0, "Northing": 431711.0, "Processing": "Active" }, "geometry": { "type": "Point", "coordinates": [ -7.463493891645998, 55.131435010781523 ] } },
{ "type": "Feature", "properties": { "OBJECTID": 23, "BWID": "IENBBWC025_0000_0100", "Name": "Seapoint", "CODE": "PA3_0088", "Location": "Louth", "LAName": "LOUTH COUNTY COUNCIL", "Province": "Leinster", "WaterType": "Coastal Waterbody", "RBDCode2": "inbrbd", "Easting": 316021.0, "Northing": 279921.0, "Processing": "Active" }, "geometry": { "type": "Point", "coordinates": [ -6.241718306299409, 53.756136807607604 ] } },
{ "type": "Feature", "properties": { "OBJECTID": 24, "BWID": "IENBBWC025_0000_0200", "Name": "Clogherhead", "CODE": "PA3_0089", "Location": "Louth", "LAName": "LOUTH COUNTY COUNCIL", "Province": "Leinster", "WaterType": "Coastal Waterbody", "RBDCode2": "inbrbd", "Easting": 316409.0, "Northing": 283213.0, "Processing": "Active" }, "geometry": { "type": "Point", "coordinates": [ -6.234598276073087, 53.785612813652257 ] } },
{ "type": "Feature", "properties": { "OBJECTID": 25, "BWID": "IENBBWC025_0000_0300", "Name": "Port, Lurganboy", "CODE": "PA3_0091", "Location": "Louth", "LAName": "LOUTH COUNTY COUNCIL", "Province": "Leinster", "WaterType": "Coastal Waterbody", "RBDCode2": "inbrbd", "Easting": 314791.0, "Northing": 287787.0, "Processing": "Active" }, "geometry": { "type": "Point", "coordinates": [ -6.257430458975429, 53.827046857555708 ] } },
{ "type": "Feature", "properties": { "OBJECTID": 26, "BWID": "IENBBWC040_0000_0100", "Name": "Shelling Hill\/Templetown", "CODE": "PA3_0090", "Location": "Louth", "LAName": "LOUTH COUNTY COUNCIL", "Province": "Leinster", "WaterType": "Coastal Waterbody", "RBDCode2": "inbrbd", "Easting": 321594.0, "Northing": 305113.0, "Processing": "Active" }, "geometry": { "type": "Point", "coordinates": [ -6.14729728914511, 53.981079994376373 ] } },
{ "type": "Feature", "properties": { "OBJECTID": 27, "BWID": "IEEABWC020_0000_0700", "Name": "Laytown\/Bettystown", "CODE": "PA3_0107", "Location": "Meath", "LAName": "MEATH COUNTY COUNCIL", "Province": "Leinster", "WaterType": "Coastal Waterbody", "RBDCode2": null, "Easting": 316460.0, "Northing": 273740.0, "Processing": "Active" }, "geometry": { "type": "Point", "coordinates": [ -6.237390248367875, 53.700532682930678 ] } },
{ "type": "Feature", "properties": { "OBJECTID": 28, "BWID": "IEEABWC090_0000_0200", "Name": "Merrion Strand", "CODE": "PA3_0046", "Location": "Dublin", "LAName": "DUBLIN CITY COUNCIL", "Province": "Leinster", "WaterType": "Coastal Waterbody", "RBDCode2": null, "Easting": 319763.0003, "Northing": 231044.0113, "Processing": "Active" }, "geometry": { "type": "Point", "coordinates": [ -6.203699596971915, 53.316364293498566 ] } },
{ "type": "Feature", "properties": { "OBJECTID": 29, "BWID": "IEEABWC090_0000_0300", "Name": "Sandymount Strand", "CODE": "PA3_0044", "Location": "Dublin", "LAName": "DUBLIN CITY COUNCIL", "Province": "Leinster", "WaterType": "Coastal Waterbody", "RBDCode2": null, "Easting": 319550.0, "Northing": 232033.0, "Processing": "Active" }, "geometry": { "type": "Point", "coordinates": [ -6.206521399101844, 53.325294105574713 ] } },
{ "type": "Feature", "properties": { "OBJECTID": 30, "BWID": "IEEABWC090_0000_0400", "Name": "Dollymount Strand", "CODE": "PA3_0045", "Location": "Dublin", "LAName": "DUBLIN CITY COUNCIL", "Province": "Leinster", "WaterType": "Coastal Waterbody", "RBDCode2": null, "Easting": 323291.0, "Northing": 236691.0, "Processing": "Active" }, "geometry": { "type": "Point", "coordinates": [ -6.148595607815802, 53.366267244971894 ] } },
{ "type": "Feature", "properties": { "OBJECTID": 31, "BWID": "IEEABWC100_0000_0100", "Name": "Silver Strand", "CODE": "PA3_0127", "Location": "Wicklow", "LAName": "WICKLOW COUNTY COUNCIL", "Province": "Leinster", "WaterType": "Coastal Waterbody", "RBDCode2": null, "Easting": 333663.0, "Northing": 190987.0, "Processing": "Active" }, "geometry": { "type": "Point", "coordinates": [ -6.011946264574722, 52.953335964137167 ] } },
{ "type": "Feature", "properties": { "OBJECTID": 32, "BWID": "IEEABWC100_0000_0200", "Name": "Greystones South", "CODE": "PA3_0131", "Location": "Wicklow", "LAName": "WICKLOW COUNTY COUNCIL", "Province": "Leinster", "WaterType": "Coastal Waterbody", "RBDCode2": null, "Easting": 330000.0, "Northing": 211980.0, "Processing": "Active" }, "geometry": { "type": "Point", "coordinates": [ -6.057953504019935, 53.142758408877732 ] } },
{ "type": "Feature", "properties": { "OBJECTID": 33, "BWID": "IEEABWC100_0000_0300", "Name": "Bray South Promenade", "CODE": "PA3_0126", "Location": "Wicklow", "LAName": "WICKLOW COUNTY COUNCIL", "Province": "Leinster", "WaterType": "Coastal Waterbody", "RBDCode2": null, "Easting": 327295.0001, "Northing": 218538.0, "Processing": "Active" }, "geometry": { "type": "Point", "coordinates": [ -6.095746471561243, 53.202303493634282 ] } },
{ "type": "Feature", "properties": { "OBJECTID": 34, "BWID": "IEEABWC140_0000_0100", "Name": "Clogga", "CODE": "PA3_0130", "Location": "Wicklow", "LAName": "WICKLOW COUNTY COUNCIL", "Province": "Leinster", "WaterType": "Coastal Waterbody", "RBDCode2": null, "Easting": 325233.0, "Northing": 169459.0, "Processing": "Active" }, "geometry": { "type": "Point", "coordinates": [ -6.145566951358657, 52.762024721343053 ] } },
{ "type": "Feature", "properties": { "OBJECTID": 35, "BWID": "IEEABWC140_0000_0200", "Name": "Brittas Bay South", "CODE": "PA3_0128", "Location": "Wicklow", "LAName": "WICKLOW COUNTY COUNCIL", "Province": "Leinster", "WaterType": "Coastal Waterbody", "RBDCode2": null, "Easting": 330650.0, "Northing": 182470.0, "Processing": "Active" }, "geometry": { "type": "Point", "coordinates": [ -6.060171178576387, 52.877590549466298 ] } },
{ "type": "Feature", "properties": { "OBJECTID": 36, "BWID": "IEEABWC140_0000_0300", "Name": "Brittas Bay North", "CODE": "PA3_0129", "Location": "Wicklow", "LAName": "WICKLOW COUNTY COUNCIL", "Province": "Leinster", "WaterType": "Coastal Waterbody", "RBDCode2": null, "Easting": 330865.0, "Northing": 182983.0, "Processing": "Active" }, "geometry": { "type": "Point", "coordinates": [ -6.056773705018989, 52.882145363234592 ] } },
{ "type": "Feature", "properties": { "OBJECTID": 37, "BWID": "IEEABWL07_274_0100", "Name": "The Cut, Lough Lene", "CODE": "PA3_0117", "Location": "Westmeath", "LAName": "WESTMEATH COUNTY COUNCIL", "Province": "Leinster", "WaterType": "Lake Waterbody", "RBDCode2": null, "Easting": 253215.0, "Northing": 268022.0, "Processing": "Active" }, "geometry": { "type": "Point", "coordinates": [ -7.19581238275374, 53.659429382175006 ] } },
{ "type": "Feature", "properties": { "OBJECTID": 38, "BWID": "IESEBWC010_0000_0100", "Name": "Rosslare Strand", "CODE": "PA3_0123", "Location": "Wexford", "LAName": "WEXFORD COUNTY COUNCIL", "Province": "Leinster", "WaterType": "Coastal Waterbody", "RBDCode2": null, "Easting": 310265.0, "Northing": 114690.0, "Processing": "Active" }, "geometry": { "type": "Point", "coordinates": [ -6.385340259706028, 52.273313629362526 ] } },
{ "type": "Feature", "properties": { "OBJECTID": 39, "BWID": "IESEBWC010_0000_0200", "Name": "Curracloe", "CODE": "PA3_0121", "Location": "Wexford", "LAName": "WEXFORD COUNTY COUNCIL", "Province": "Leinster", "WaterType": "Coastal Waterbody", "RBDCode2": null, "Easting": 311568.0, "Northing": 127515.0, "Processing": "Active" }, "geometry": { "type": "Point", "coordinates": [ -6.362007632331177, 52.388256372981466 ] } },
{ "type": "Feature", "properties": { "OBJECTID": 40, "BWID": "IESEBWC010_0000_0250", "Name": "Ballinesker", "CODE": "PA3_0139", "Location": "Wexford", "LAName": "WEXFORD COUNTY COUNCIL", "Province": "Leinster", "WaterType": "Coastal Waterbody", "RBDCode2": null, "Easting": 311843.0, "Northing": 128776.0, "Processing": "Active" }, "geometry": { "type": "Point", "coordinates": [ -6.357549549889043, 52.399527573986923 ] } },
{ "type": "Feature", "properties": { "OBJECTID": 41, "BWID": "IESEBWC010_0000_0300", "Name": "Morriscastle", "CODE": "PA3_0120", "Location": "Wexford", "LAName": "WEXFORD COUNTY COUNCIL", "Province": "Leinster", "WaterType": "Coastal Waterbody", "RBDCode2": null, "Easting": 319664.0, "Northing": 141674.0, "Processing": "Active" }, "geometry": { "type": "Point", "coordinates": [ -6.238081145183888, 52.513726573868503 ] } },
{ "type": "Feature", "properties": { "OBJECTID": 42, "BWID": "IESEBWC010_0000_0400", "Name": "Courtown, North Beach", "CODE": "PA3_0125", "Location": "Wexford", "LAName": "WEXFORD COUNTY COUNCIL", "Province": "Leinster", "WaterType": "Coastal Waterbody", "RBDCode2": null, "Easting": 320142.0, "Northing": 156616.0, "Processing": "Active" }, "geometry": { "type": "Point", "coordinates": [ -6.22563040734594, 52.647828413959921 ] } },
{ "type": "Feature", "properties": { "OBJECTID": 43, "BWID": "IESEBWC010_0000_0500", "Name": "Ballymoney, North Beach", "CODE": "PA3_0124", "Location": "Wexford", "LAName": "WEXFORD COUNTY COUNCIL", "Province": "Leinster", "WaterType": "Coastal Waterbody", "RBDCode2": null, "Easting": 321720.0, "Northing": 160261.0, "Processing": "Active" }, "geometry": { "type": "Point", "coordinates": [ -6.200983349951339, 52.680214948329549 ] } },
{ "type": "Feature", "properties": { "OBJECTID": 44, "BWID": "IESEBWC050_0000_0100", "Name": "Ardmore Beach", "CODE": "PA3_0112", "Location": "Waterford", "LAName": "WATERFORD COUNTY COUNCIL", "Province": "Munster", "WaterType": "Coastal Waterbody", "RBDCode2": null, "Easting": 219200.0, "Northing": 78000.0, "Processing": "Active" }, "geometry": { "type": "Point", "coordinates": [ -7.721454753942251, 51.954300376788261 ] } },
{ "type": "Feature", "properties": { "OBJECTID": 45, "BWID": "IESEBWC050_0000_0200", "Name": "Bunmahon Beach", "CODE": "PA3_0111", "Location": "Waterford", "LAName": "WATERFORD COUNTY COUNCIL", "Province": "Munster", "WaterType": "Coastal Waterbody", "RBDCode2": null, "Easting": 243400.0, "Northing": 98600.0, "Processing": "Active" }, "geometry": { "type": "Point", "coordinates": [ -7.366860619639611, 52.138060869192884 ] } },
{ "type": "Feature", "properties": { "OBJECTID": 46, "BWID": "IESEBWC100_0000_0100", "Name": "Counsellors' Strand, Dunmore East", "CODE": "PA3_0115", "Location": "Waterford", "LAName": "WATERFORD COUNTY COUNCIL", "Province": "Munster", "WaterType": "Coastal Waterbody", "RBDCode2": null, "Easting": 269100.0, "Northing": 100850.0, "Processing": "Active" }, "geometry": { "type": "Point", "coordinates": [ -6.991100432771761, 52.155664820802826 ] } },
{ "type": "Feature", "properties": { "OBJECTID": 47, "BWID": "IESEBWC100_0000_0200", "Name": "Dunmore Strand, Dunmore East", "CODE": "PA3_0114", "Location": "Waterford", "LAName": "WATERFORD COUNTY COUNCIL", "Province": "Munster", "WaterType": "Coastal Waterbody", "RBDCode2": null, "Easting": 268900.0, "Northing": 100700.0, "Processing": "Active" }, "geometry": { "type": "Point", "coordinates": [ -6.994052560860136, 52.15434197265396 ] } },
{ "type": "Feature", "properties": { "OBJECTID": 48, "BWID": "IESEBWC110_0000_0100", "Name": "Tramore Beach", "CODE": "PA3_0113", "Location": "Waterford", "LAName": "WATERFORD COUNTY COUNCIL", "Province": "Munster", "WaterType": "Coastal Waterbody", "RBDCode2": null, "Easting": 258600.0, "Northing": 101000.0, "Processing": "Active" }, "geometry": { "type": "Point", "coordinates": [ -7.144470986985972, 52.158225516977829 ] } },
{ "type": "Feature", "properties": { "OBJECTID": 49, "BWID": "IESEBWC140_0000_0100", "Name": "Clonea Beach", "CODE": "PA3_0116", "Location": "Waterford", "LAName": "WATERFORD COUNTY COUNCIL", "Province": "Munster", "WaterType": "Coastal Waterbody", "RBDCode2": null, "Easting": 231500.0, "Northing": 93900.0, "Processing": "Active" }, "geometry": { "type": "Point", "coordinates": [ -7.541089992929606, 52.096629476010669 ] } },
{ "type": "Feature", "properties": { "OBJECTID": 50, "BWID": "IESEBWT100_0100_0100", "Name": "Duncannon", "CODE": "PA3_0122", "Location": "Wexford", "LAName": "WEXFORD COUNTY COUNCIL", "Province": "Leinster", "WaterType": "Coastal Waterbody", "RBDCode2": null, "Easting": 272939.0, "Northing": 108050.0, "Processing": "Active" }, "geometry": { "type": "Point", "coordinates": [ -6.933471137404621, 52.219865037236573 ] } },
{ "type": "Feature", "properties": { "OBJECTID": 51, "BWID": "IESHBWC040_0000_0100", "Name": "Ballyheigue", "CODE": "PA3_0075", "Location": "Kerry", "LAName": "KERRY COUNTY COUNCIL", "Province": "Munster", "WaterType": "Coastal Waterbody", "RBDCode2": null, "Easting": 74815.0, "Northing": 127728.0, "Processing": "Active" }, "geometry": { "type": "Point", "coordinates": [ -9.839432604410378, 52.387218443329097 ] } },
{ "type": "Feature", "properties": { "OBJECTID": 52, "BWID": "IESHBWC040_0000_0200", "Name": "Banna Strand", "CODE": "PA3_0072", "Location": "Kerry", "LAName": "KERRY COUNTY COUNCIL", "Province": "Munster", "WaterType": "Coastal Waterbody", "RBDCode2": null, "Easting": 74791.0, "Northing": 122290.0, "Processing": "Active" }, "geometry": { "type": "Point", "coordinates": [ -9.837757029677562, 52.338369620736621 ] } },
{ "type": "Feature", "properties": { "OBJECTID": 53, "BWID": "IESHBWC040_0000_0250", "Name": "Fenit", "CODE": "PA3_0081", "Location": "Kerry", "LAName": "KERRY COUNTY COUNCIL", "Province": "Munster", "WaterType": "Coastal Waterbody", "RBDCode2": null, "Easting": 72627.0, "Northing": 115351.0, "Processing": "Active" }, "geometry": { "type": "Point", "coordinates": [ -9.866864699897411, 52.275547100965845 ] } },
{ "type": "Feature", "properties": { "OBJECTID": 54, "BWID": "IESHBWC040_0000_0300", "Name": "Castlegregory", "CODE": "PA3_0084", "Location": "Kerry", "LAName": "KERRY COUNTY COUNCIL", "Province": "Munster", "WaterType": "Coastal Waterbody", "RBDCode2": null, "Easting": 62706.0, "Northing": 114014.0, "Processing": "Active" }, "geometry": { "type": "Point", "coordinates": [ -10.011579537101923, 52.261153246745344 ] } },
{ "type": "Feature", "properties": { "OBJECTID": 55, "BWID": "IESHBWC040_0000_0400", "Name": "Maharabeg", "CODE": "PA3_0079", "Location": "Kerry", "LAName": "KERRY COUNTY COUNCIL", "Province": "Munster", "WaterType": "Coastal Waterbody", "RBDCode2": null, "Easting": 61899.0, "Northing": 115678.0, "Processing": "Active" }, "geometry": { "type": "Point", "coordinates": [ -10.024071758482799, 52.275895807026316 ] } },
{ "type": "Feature", "properties": { "OBJECTID": 56, "BWID": "IESHBWC060_0000_0100", "Name": "Cappagh Pier, Kilrush", "CODE": "PA3_0010", "Location": "Clare", "LAName": "CLARE COUNTY COUNCIL", "Province": "Munster", "WaterType": "Coastal Waterbody", "RBDCode2": null, "Easting": 98517.0, "Northing": 154025.0, "Processing": "Active" }, "geometry": { "type": "Point", "coordinates": [ -9.499461324398343, 52.628352400081582 ] } },
{ "type": "Feature", "properties": { "OBJECTID": 57, "BWID": "IESHBWC060_0000_0200", "Name": "Ballybunnion North", "CODE": "PA3_0083", "Location": "Kerry", "LAName": "KERRY COUNTY COUNCIL", "Province": "Munster", "WaterType": "Coastal Waterbody", "RBDCode2": null, "Easting": 86033.0, "Northing": 141512.0, "Processing": "Active" }, "geometry": { "type": "Point", "coordinates": [ -9.679447354091238, 52.513481304265362 ] } },
{ "type": "Feature", "properties": { "OBJECTID": 58, "BWID": "IESHBWC060_0000_0300", "Name": "Ballybunnion South", "CODE": "PA3_0076", "Location": "Kerry", "LAName": "KERRY COUNTY COUNCIL", "Province": "Munster", "WaterType": "Coastal Waterbody", "RBDCode2": null, "Easting": 85819.0, "Northing": 141200.0, "Processing": "Active" }, "geometry": { "type": "Point", "coordinates": [ -9.682491028060641, 52.510634047649006 ] } },
{ "type": "Feature", "properties": { "OBJECTID": 59, "BWID": "IESHBWC070_0000_0100", "Name": "Fanore", "CODE": "PA3_0009", "Location": "Clare", "LAName": "CLARE COUNTY COUNCIL", "Province": "Munster", "WaterType": "Coastal Waterbody", "RBDCode2": null, "Easting": 113693.0, "Northing": 208429.0, "Processing": "Active" }, "geometry": { "type": "Point", "coordinates": [ -9.289819589280256, 53.119711625140944 ] } },
{ "type": "Feature", "properties": { "OBJECTID": 60, "BWID": "IESHBWC070_0000_0200", "Name": "White Strand, Miltown Malbay", "CODE": "PA3_0011", "Location": "Clare", "LAName": "CLARE COUNTY COUNCIL", "Province": "Munster", "WaterType": "Coastal Waterbody", "RBDCode2": null, "Easting": 103824.0, "Northing": 180627.0, "Processing": "Active" }, "geometry": { "type": "Point", "coordinates": [ -9.428908881198565, 52.868286868688216 ] } },
{ "type": "Feature", "properties": { "OBJECTID": 61, "BWID": "IESHBWC070_0000_0300", "Name": "Spanish Point", "CODE": "PA3_0004", "Location": "Clare", "LAName": "CLARE COUNTY COUNCIL", "Province": "Munster", "WaterType": "Coastal Waterbody", "RBDCode2": null, "Easting": 103362.0, "Northing": 177722.0, "Processing": "Active" }, "geometry": { "type": "Point", "coordinates": [ -9.434906249939875, 52.842108792181456 ] } },
{ "type": "Feature", "properties": { "OBJECTID": 62, "BWID": "IESHBWC070_0000_0400", "Name": "Kilkee", "CODE": "PA3_0005", "Location": "Clare", "LAName": "CLARE COUNTY COUNCIL", "Province": "Munster", "WaterType": "Coastal Waterbody", "RBDCode2": null, "Easting": 88447.0, "Northing": 160053.0, "Processing": "Active" }, "geometry": { "type": "Point", "coordinates": [ -9.650151389916257, 52.680523277115121 ] } },
{ "type": "Feature", "properties": { "OBJECTID": 63, "BWID": "IESHBWC080_0000_0100", "Name": "Whitestrand, Doonbeg", "CODE": "PA3_0006", "Location": "Clare", "LAName": "CLARE COUNTY COUNCIL", "Province": "Munster", "WaterType": "Coastal Waterbody", "RBDCode2": null, "Easting": 95455.0, "Northing": 167415.0, "Processing": "Active" }, "geometry": { "type": "Point", "coordinates": [ -9.548914206406661, 52.748050275657725 ] } },
{ "type": "Feature", "properties": { "OBJECTID": 64, "BWID": "IESHBWC100_0000_0100", "Name": "Lahinch", "CODE": "PA3_0007", "Location": "Clare", "LAName": "CLARE COUNTY COUNCIL", "Province": "Munster", "WaterType": "Coastal Waterbody", "RBDCode2": null, "Easting": 109291.0, "Northing": 187776.0, "Processing": "Active" }, "geometry": { "type": "Point", "coordinates": [ -9.349745234680533, 52.933456233986035 ] } },
{ "type": "Feature", "properties": { "OBJECTID": 65, "BWID": "IESHBWL25_188_0100", "Name": "Lilliput, Lough Ennel", "CODE": "PA3_0118", "Location": "Westmeath", "LAName": "WESTMEATH COUNTY COUNCIL", "Province": "Leinster", "WaterType": "Lake Waterbody", "RBDCode2": null, "Easting": 237653.0, "Northing": 244415.0, "Processing": "Active" }, "geometry": { "type": "Point", "coordinates": [ -7.434026350880232, 53.448688727820375 ] } },
{ "type": "Feature", "properties": { "OBJECTID": 66, "BWID": "IESHBWL25_191a_0100", "Name": "Bathing Place at Portumna", "CODE": "PA3_0068", "Location": "Galway", "LAName": "GALWAY COUNTY COUNCIL", "Province": "Connaught", "WaterType": "Lake Waterbody", "RBDCode2": null, "Easting": 185949.0, "Northing": 203493.0, "Processing": "Active" }, "geometry": { "type": "Point", "coordinates": [ -8.210413765420926, 53.082157021420464 ] } },
{ "type": "Feature", "properties": { "OBJECTID": 67, "BWID": "IESHBWL25_191a_0200", "Name": "Mountshannon, Lough Derg", "CODE": "PA3_0001", "Location": "Clare", "LAName": "CLARE COUNTY COUNCIL", "Province": "Munster", "WaterType": "Lake Waterbody", "RBDCode2": null, "Easting": 171256.0, "Northing": 186547.0, "Processing": "Active" }, "geometry": { "type": "Point", "coordinates": [ -8.428159924360354, 52.929304000842421 ] } },
{ "type": "Feature", "properties": { "OBJECTID": 68, "BWID": "IESHBWL25_191a_0300", "Name": "Ballycuggeran", "CODE": "PA3_0003", "Location": "Clare", "LAName": "CLARE COUNTY COUNCIL", "Province": "Munster", "WaterType": "Lake Waterbody", "RBDCode2": null, "Easting": 168753.0, "Northing": 176378.0, "Processing": "Active" }, "geometry": { "type": "Point", "coordinates": [ -8.464401987589783, 52.837791685043911 ] } },
{ "type": "Feature", "properties": { "OBJECTID": 69, "BWID": "IESHBWL26_624_0100", "Name": "Keeldra Lough", "CODE": "PA3_0087", "Location": "Leitrim", "LAName": "LEITRIM COUNTY COUNCIL", "Province": "Connaught", "WaterType": "Lake Waterbody", "RBDCode2": null, "Easting": 214971.0, "Northing": 296640.0, "Processing": "Active" }, "geometry": { "type": "Point", "coordinates": [ -7.772891150929896, 53.919030042420744 ] } },
{ "type": "Feature", "properties": { "OBJECTID": 70, "BWID": "IESHBWL26_703_0100", "Name": "Portnashangan, Lough Owel", "CODE": "PA3_0119", "Location": "Westmeath", "LAName": "WESTMEATH COUNTY COUNCIL", "Province": "Leinster", "WaterType": "Lake Waterbody", "RBDCode2": null, "Easting": 241920.99995, "Northing": 258534.999992, "Processing": "Active" }, "geometry": { "type": "Point", "coordinates": [ -7.367907114659686, 53.575223782683089 ] } },
{ "type": "Feature", "properties": { "OBJECTID": 71, "BWID": "IESHBWL27_72_0100", "Name": "Ballyallia Lake, Ennis", "CODE": "PA3_0002", "Location": "Clare", "LAName": "CLARE COUNTY COUNCIL", "Province": "Munster", "WaterType": "Lake Waterbody", "RBDCode2": null, "Easting": 134654.0, "Northing": 180870.0, "Processing": "Active" }, "geometry": { "type": "Point", "coordinates": [ -8.971232946669378, 52.875094311861972 ] } },
{ "type": "Feature", "properties": { "OBJECTID": 72, "BWID": "IESWBWC010_0000_0100", "Name": "Tragumna", "CODE": "PA3_0015", "Location": "Cork", "LAName": "CORK COUNTY COUNCIL", "Province": "Munster", "WaterType": "Coastal Waterbody", "RBDCode2": null, "Easting": 112150.0, "Northing": 28340.0, "Processing": "Active" }, "geometry": { "type": "Point", "coordinates": [ -9.265854074255227, 51.501487341658901 ] } },
{ "type": "Feature", "properties": { "OBJECTID": 73, "BWID": "IESWBWC020_0000_0100", "Name": "Redbarn", "CODE": "PA3_0013", "Location": "Cork", "LAName": "CORK COUNTY COUNCIL", "Province": "Munster", "WaterType": "Coastal Waterbody", "RBDCode2": null, "Easting": 208931.0, "Northing": 74635.0, "Processing": "Active" }, "geometry": { "type": "Point", "coordinates": [ -7.870907834190987, 51.924317831711733 ] } },
{ "type": "Feature", "properties": { "OBJECTID": 74, "BWID": "IESWBWC020_0000_0200", "Name": "Youghal, Claycastle", "CODE": "PA3_0021", "Location": "Cork", "LAName": "CORK COUNTY COUNCIL", "Province": "Munster", "WaterType": "Coastal Waterbody", "RBDCode2": null, "Easting": 209750.0, "Northing": 75660.0, "Processing": "Active" }, "geometry": { "type": "Point", "coordinates": [ -7.858974192150336, 51.933515939693237 ] } },
{ "type": "Feature", "properties": { "OBJECTID": 75, "BWID": "IESWBWC020_0000_0300", "Name": "Youghal Front Strand Beach", "CODE": "PA3_0019", "Location": "Cork", "LAName": "CORK COUNTY COUNCIL", "Province": "Munster", "WaterType": "Coastal Waterbody", "RBDCode2": null, "Easting": 210550.0, "Northing": 76200.0, "Processing": "Active" }, "geometry": { "type": "Point", "coordinates": [ -7.847326793224791, 51.938354433778528 ] } },
{ "type": "Feature", "properties": { "OBJECTID": 76, "BWID": "IESWBWC040_0000_0100", "Name": "Garryvoe", "CODE": "PA3_0016", "Location": "Cork", "LAName": "CORK COUNTY COUNCIL", "Province": "Munster", "WaterType": "Coastal Waterbody", "RBDCode2": null, "Easting": 199890.0, "Northing": 67220.0, "Processing": "Active" }, "geometry": { "type": "Point", "coordinates": [ -8.002322145527087, 51.857748854425779 ] } },
{ "type": "Feature", "properties": { "OBJECTID": 77, "BWID": "IESWBWC050_0000_0100", "Name": "Fountainstown", "CODE": "PA3_0018", "Location": "Cork", "LAName": "CORK COUNTY COUNCIL", "Province": "Munster", "WaterType": "Coastal Waterbody", "RBDCode2": null, "Easting": 178620.0, "Northing": 58030.0, "Processing": "Active" }, "geometry": { "type": "Point", "coordinates": [ -8.310469858844206, 51.774746446037049 ] } },
{ "type": "Feature", "properties": { "OBJECTID": 78, "BWID": "IESWBWC090_0000_0100", "Name": "Coolmaine", "CODE": "PA3_0012", "Location": "Cork", "LAName": "CORK COUNTY COUNCIL", "Province": "Munster", "WaterType": "Coastal Waterbody", "RBDCode2": null, "Easting": 153930.0, "Northing": 43790.0, "Processing": "Active" }, "geometry": { "type": "Point", "coordinates": [ -8.66626780721843, 51.64528578164748 ] } },
{ "type": "Feature", "properties": { "OBJECTID": 79, "BWID": "IESWBWC090_0000_0200", "Name": "Garretstown", "CODE": "PA3_0017", "Location": "Cork", "LAName": "CORK COUNTY COUNCIL", "Province": "Munster", "WaterType": "Coastal Waterbody", "RBDCode2": null, "Easting": 159935.0, "Northing": 43408.0, "Processing": "Active" }, "geometry": { "type": "Point", "coordinates": [ -8.579478816375721, 51.642312510732765 ] } },
{ "type": "Feature", "properties": { "OBJECTID": 80, "BWID": "IESWBWC090_0000_0300", "Name": "Garrylucas, White Strand", "CODE": "PA3_0022", "Location": "Cork", "LAName": "CORK COUNTY COUNCIL", "Province": "Munster", "WaterType": "Coastal Waterbody", "RBDCode2": null, "Easting": 160627.0, "Northing": 43157.0, "Processing": "Active" }, "geometry": { "type": "Point", "coordinates": [ -8.569454900957515, 51.640105600215513 ] } },
{ "type": "Feature", "properties": { "OBJECTID": 81, "BWID": "IESWBWC100_0000_0100", "Name": "Inchydoney", "CODE": "PA3_0020", "Location": "Cork", "LAName": "CORK COUNTY COUNCIL", "Province": "Munster", "WaterType": "Coastal Waterbody", "RBDCode2": null, "Easting": 140190.0, "Northing": 38330.0, "Processing": "Active" }, "geometry": { "type": "Point", "coordinates": [ -8.86380753917105, 51.594925817237126 ] } },
{ "type": "Feature", "properties": { "OBJECTID": 82, "BWID": "IESWBWC110_0000_0100", "Name": "Warren, Cregane Strand", "CODE": "PA3_0023", "Location": "Cork", "LAName": "CORK COUNTY COUNCIL", "Province": "Munster", "WaterType": "Coastal Waterbody", "RBDCode2": null, "Easting": 129788.0, "Northing": 35117.0, "Processing": "Active" }, "geometry": { "type": "Point", "coordinates": [ -9.013247339028528, 51.564852987537336 ] } },
{ "type": "Feature", "properties": { "OBJECTID": 83, "BWID": "IESWBWC110_0000_0200", "Name": "Owenahincha, Little Island Strand", "CODE": "PA3_0024", "Location": "Cork", "LAName": "CORK COUNTY COUNCIL", "Province": "Munster", "WaterType": "Coastal Waterbody", "RBDCode2": null, "Easting": 131217.0, "Northing": 34939.0, "Processing": "Active" }, "geometry": { "type": "Point", "coordinates": [ -8.992608342454712, 51.563429440116217 ] } },
{ "type": "Feature", "properties": { "OBJECTID": 84, "BWID": "IESWBWC150_0000_0100", "Name": "Doire Fhíonáin (Derrynane)", "CODE": "PA3_0080", "Location": "Kerry", "LAName": "KERRY COUNTY COUNCIL", "Province": "Munster", "WaterType": "Coastal Waterbody", "RBDCode2": null, "Easting": 52411.0, "Northing": 58395.0, "Processing": "Active" }, "geometry": { "type": "Point", "coordinates": [ -10.138304042879353, 51.75899208128844 ] } },
{ "type": "Feature", "properties": { "OBJECTID": 85, "BWID": "IESWBWC150_0000_0200", "Name": "Barley Cove", "CODE": "PA3_0014", "Location": "Cork", "LAName": "CORK COUNTY COUNCIL", "Province": "Munster", "WaterType": "Coastal Waterbody", "RBDCode2": null, "Easting": 76578.0, "Northing": 25183.0, "Processing": "Active" }, "geometry": { "type": "Point", "coordinates": [ -9.776798267888788, 51.466482992374289 ] } },
{ "type": "Feature", "properties": { "OBJECTID": 86, "BWID": "IESWBWC200_0000_0100", "Name": "Baile an Sceilg (Ballinskelligs)", "CODE": "PA3_0086", "Location": "Kerry", "LAName": "KERRY COUNTY COUNCIL", "Province": "Munster", "WaterType": "Coastal Waterbody", "RBDCode2": null, "Easting": 43471.0, "Northing": 65622.0, "Processing": "Active" }, "geometry": { "type": "Point", "coordinates": [ -10.270936711667678, 51.821467498138269 ] } },
{ "type": "Feature", "properties": { "OBJECTID": 87, "BWID": "IESWBWC200_0000_0200", "Name": "Trá na hUíne (Inny Strand, Waterville)", "CODE": "PA3_0078", "Location": "Kerry", "LAName": "KERRY COUNTY COUNCIL", "Province": "Munster", "WaterType": "Coastal Waterbody", "RBDCode2": null, "Easting": 47900.0, "Northing": 67500.0, "Processing": "Active" }, "geometry": { "type": "Point", "coordinates": [ -10.20757774398041, 51.839555269866416 ] } },
{ "type": "Feature", "properties": { "OBJECTID": 88, "BWID": "IESWBWC220_0000_0100", "Name": "White Strand, Caherciveen", "CODE": "PA3_0082", "Location": "Kerry", "LAName": "KERRY COUNTY COUNCIL", "Province": "Munster", "WaterType": "Coastal Waterbody", "RBDCode2": null, "Easting": 43527.0, "Northing": 79233.0, "Processing": "Active" }, "geometry": { "type": "Point", "coordinates": [ -10.276292360646522, 51.943711937455689 ] } },
{ "type": "Feature", "properties": { "OBJECTID": 89, "BWID": "IESWBWC230_0000_0100", "Name": "Fionntrá (Ventry)", "CODE": "PA3_0077", "Location": "Kerry", "LAName": "KERRY COUNTY COUNCIL", "Province": "Munster", "WaterType": "Coastal Waterbody", "RBDCode2": null, "Easting": 38220.0, "Northing": 100201.0, "Processing": "Active" }, "geometry": { "type": "Point", "coordinates": [ -10.36331310155232, 52.13047477079332 ] } },
{ "type": "Feature", "properties": { "OBJECTID": 90, "BWID": "IESWBWC230_0000_0200", "Name": "Inch", "CODE": "PA3_0074", "Location": "Kerry", "LAName": "KERRY COUNTY COUNCIL", "Province": "Munster", "WaterType": "Coastal Waterbody", "RBDCode2": null, "Easting": 64269.0, "Northing": 100027.0, "Processing": "Active" }, "geometry": { "type": "Point", "coordinates": [ -9.98310238271786, 52.135918887662378 ] } },
{ "type": "Feature", "properties": { "OBJECTID": 91, "BWID": "IESWBWC230_0000_0300", "Name": "Rossbeigh, White Strand", "CODE": "PA3_0073", "Location": "Kerry", "LAName": "KERRY COUNTY COUNCIL", "Province": "Munster", "WaterType": "Coastal Waterbody", "RBDCode2": null, "Easting": 64443.0, "Northing": 91783.0, "Processing": "Active" }, "geometry": { "type": "Point", "coordinates": [ -9.977285445092072, 52.061917852684218 ] } },
{ "type": "Feature", "properties": { "OBJECTID": 92, "BWID": "IESWBWC230_0000_0400", "Name": "Kells", "CODE": "PA3_0085", "Location": "Kerry", "LAName": "KERRY COUNTY COUNCIL", "Province": "Munster", "WaterType": "Coastal Waterbody", "RBDCode2": null, "Easting": 55613.0, "Northing": 88007.0, "Processing": "Active" }, "geometry": { "type": "Point", "coordinates": [ -10.104351000301335, 52.025776791918091 ] } },
{ "type": "Feature", "properties": { "OBJECTID": 93, "BWID": "IEWEBWC010_0000_0100", "Name": "Trá Chaladh Fínis, Carna", "CODE": "PA3_0059", "Location": "Galway", "LAName": "GALWAY COUNTY COUNCIL", "Province": "Connaught", "WaterType": "Coastal Waterbody", "RBDCode2": null, "Easting": 81211.0, "Northing": 229313.0, "Processing": "Active" }, "geometry": { "type": "Point", "coordinates": [ -9.782519072806577, 53.301027169761468 ] } },
{ "type": "Feature", "properties": { "OBJECTID": 94, "BWID": "IEWEBWC010_0000_0200", "Name": "Cill Mhuirbhigh, Inis Mór", "CODE": "PA3_0061", "Location": "Galway", "LAName": "GALWAY COUNTY COUNCIL", "Province": "Connaught", "WaterType": "Coastal Waterbody", "RBDCode2": null, "Easting": 82978.0, "Northing": 210420.0, "Processing": "Active" }, "geometry": { "type": "Point", "coordinates": [ -9.749102741095344, 53.131742434718362 ] } },
{ "type": "Feature", "properties": { "OBJECTID": 95, "BWID": "IEWEBWC010_0000_0250", "Name": "Trá Inis Oirr (Main Beach)", "CODE": "PA3_0138", "Location": "Galway", "LAName": "GALWAY COUNTY COUNCIL", "Province": "Connaught", "WaterType": "Coastal Waterbody", "RBDCode2": null, "Easting": 98210.0, "Northing": 202750.0, "Processing": "Active" }, "geometry": { "type": "Point", "coordinates": [ -9.519194374221339, 53.065973105572056 ] } },
{ "type": "Feature", "properties": { "OBJECTID": 96, "BWID": "IEWEBWC010_0000_0300", "Name": "An Trá Mór, Coill Rua, Indreabhán", "CODE": "PA3_0069", "Location": "Galway", "LAName": "GALWAY COUNTY COUNCIL", "Province": "Connaught", "WaterType": "Coastal Waterbody", "RBDCode2": null, "Easting": 109500.0, "Northing": 222000.0, "Processing": "Active" }, "geometry": { "type": "Point", "coordinates": [ -9.356267127087657, 53.240921652123149 ] } },
{ "type": "Feature", "properties": { "OBJECTID": 97, "BWID": "IEWEBWC010_0000_0400", "Name": "Trá na mBan, An Spidéal", "CODE": "PA3_0064", "Location": "Galway", "LAName": "GALWAY COUNTY COUNCIL", "Province": "Connaught", "WaterType": "Coastal Waterbody", "RBDCode2": null, "Easting": 113500.0, "Northing": 222180.0, "Processing": "Active" }, "geometry": { "type": "Point", "coordinates": [ -9.296420195406727, 53.243204859252856 ] } },
{ "type": "Feature", "properties": { "OBJECTID": 98, "BWID": "IEWEBWC100_0000_0100", "Name": "Trá na bhForbacha, Na Forbacha", "CODE": "PA3_0058", "Location": "Galway", "LAName": "GALWAY COUNTY COUNCIL", "Province": "Connaught", "WaterType": "Coastal Waterbody", "RBDCode2": null, "Easting": 118250.0, "Northing": 222570.0, "Processing": "Active" }, "geometry": { "type": "Point", "coordinates": [ -9.225388317077188, 53.247460452280862 ] } },
{ "type": "Feature", "properties": { "OBJECTID": 99, "BWID": "IEWEBWC110_0000_0100", "Name": "Bishopsquarter", "CODE": "PA3_0008", "Location": "Clare", "LAName": "CLARE COUNTY COUNCIL", "Province": "Munster", "WaterType": "Coastal Waterbody", "RBDCode2": null, "Easting": 124690.0, "Northing": 209880.0, "Processing": "Active" }, "geometry": { "type": "Point", "coordinates": [ -9.12594577938015, 53.134412191823564 ] } },
{ "type": "Feature", "properties": { "OBJECTID": 100, "BWID": "IEWEBWC160_0000_0100", "Name": "Traught, Kinvara", "CODE": "PA3_0065", "Location": "Galway", "LAName": "GALWAY COUNTY COUNCIL", "Province": "Connaught", "WaterType": "Coastal Waterbody", "RBDCode2": null, "Easting": 133970.0, "Northing": 213821.0, "Processing": "Active" }, "geometry": { "type": "Point", "coordinates": [ -8.988129240514942, 53.171047677771625 ] } },
{ "type": "Feature", "properties": { "OBJECTID": 101, "BWID": "IEWEBWC170_0000_0100", "Name": "Silverstrand Beach", "CODE": "PA3_0070", "Location": "Galway", "LAName": "GALWAY CITY COUNCIL", "Province": "Connaught", "WaterType": "Coastal Waterbody", "RBDCode2": null, "Easting": 124854.0, "Northing": 222723.0, "Processing": "Active" }, "geometry": { "type": "Point", "coordinates": [ -9.126515358008859, 53.249810301812794 ] } },
{ "type": "Feature", "properties": { "OBJECTID": 102, "BWID": "IEWEBWC170_0000_0200", "Name": "Salthill Beach", "CODE": "PA3_0071", "Location": "Galway", "LAName": "GALWAY CITY COUNCIL", "Province": "Connaught", "WaterType": "Coastal Waterbody", "RBDCode2": null, "Easting": 127151.0, "Northing": 223210.0, "Processing": "Active" }, "geometry": { "type": "Point", "coordinates": [ -9.092221835703254, 53.254505309700193 ] } },
{ "type": "Feature", "properties": { "OBJECTID": 103, "BWID": "IEWEBWC200_0000_0100", "Name": "Trá an Dóilín, An Ceathrú Rua", "CODE": "PA3_0067", "Location": "Galway", "LAName": "GALWAY COUNTY COUNCIL", "Province": "Connaught", "WaterType": "Coastal Waterbody", "RBDCode2": null, "Easting": 91259.0, "Northing": 223050.0, "Processing": "Active" }, "geometry": { "type": "Point", "coordinates": [ -9.629732638196881, 53.246932383803021 ] } },
{ "type": "Feature", "properties": { "OBJECTID": 104, "BWID": "IEWEBWC230_0000_0100", "Name": "Goirtín, Cloch na Rón", "CODE": "PA3_0062", "Location": "Galway", "LAName": "GALWAY COUNTY COUNCIL", "Province": "Connaught", "WaterType": "Coastal Waterbody", "RBDCode2": null, "Easting": 69630.0, "Northing": 238000.0, "Processing": "Active" }, "geometry": { "type": "Point", "coordinates": [ -9.959696174761834, 53.376313395548436 ] } },
{ "type": "Feature", "properties": { "OBJECTID": 105, "BWID": "IEWEBWC250_0000_0100", "Name": "Keem Beach, Achill Island", "CODE": "PA3_0093", "Location": "Mayo", "LAName": "MAYO COUNTY COUNCIL", "Province": "Connaught", "WaterType": "Coastal Waterbody", "RBDCode2": null, "Easting": 56089.0, "Northing": 304134.0, "Processing": "Active" }, "geometry": { "type": "Point", "coordinates": [ -10.193647522900637, 53.966553237921225 ] } },
{ "type": "Feature", "properties": { "OBJECTID": 106, "BWID": "IEWEBWC250_0000_0200", "Name": "Keel Beach, Achill Island", "CODE": "PA3_0094", "Location": "Mayo", "LAName": "MAYO COUNTY COUNCIL", "Province": "Connaught", "WaterType": "Coastal Waterbody", "RBDCode2": null, "Easting": 63761.0, "Northing": 304492.0, "Processing": "Active" }, "geometry": { "type": "Point", "coordinates": [ -10.076989096512149, 53.971843790882701 ] } },
{ "type": "Feature", "properties": { "OBJECTID": 107, "BWID": "IEWEBWC250_0000_0300", "Name": "Dooega Beach, Achill Island", "CODE": "PA3_0092", "Location": "Mayo", "LAName": "MAYO COUNTY COUNCIL", "Province": "Connaught", "WaterType": "Coastal Waterbody", "RBDCode2": null, "Easting": 67320.0, "Northing": 298696.0, "Processing": "Active" }, "geometry": { "type": "Point", "coordinates": [ -10.020271748306234, 53.920729254950224 ] } },
{ "type": "Feature", "properties": { "OBJECTID": 108, "BWID": "IEWEBWC250_0000_0350", "Name": "Carrowniskey, Louisburgh", "CODE": "PA3_0134", "Location": "Mayo", "LAName": "MAYO COUNTY COUNCIL", "Province": "Connaught", "WaterType": "Coastal Waterbody", "RBDCode2": null, "Easting": 75066.0, "Northing": 277833.0, "Processing": "Active" }, "geometry": { "type": "Point", "coordinates": [ -9.893972762158223, 53.735318161826761 ] } },
{ "type": "Feature", "properties": { "OBJECTID": 110, "BWID": "IEWEBWC340_0000_0100", "Name": "Clare Island, Louisburgh", "CODE": "PA3_0100", "Location": "Mayo", "LAName": "MAYO COUNTY COUNCIL", "Province": "Connaught", "WaterType": "Coastal Waterbody", "RBDCode2": null, "Easting": 71405.0, "Northing": 285214.0, "Processing": "Active" }, "geometry": { "type": "Point", "coordinates": [ -9.952489302303443, 53.800704062129292 ] } },
{ "type": "Feature", "properties": { "OBJECTID": 111, "BWID": "IEWEBWC340_0000_0200", "Name": "Mulranny Beach", "CODE": "PA3_0099", "Location": "Mayo", "LAName": "MAYO COUNTY COUNCIL", "Province": "Connaught", "WaterType": "Coastal Waterbody", "RBDCode2": null, "Easting": 82729.0, "Northing": 295659.0, "Processing": "Active" }, "geometry": { "type": "Point", "coordinates": [ -9.784701152497599, 53.897172579090039 ] } },
{ "type": "Feature", "properties": { "OBJECTID": 112, "BWID": "IEWEBWC340_0000_0300", "Name": "Old Head Beach, Louisburgh", "CODE": "PA3_0106", "Location": "Mayo", "LAName": "MAYO COUNTY COUNCIL", "Province": "Connaught", "WaterType": "Coastal Waterbody", "RBDCode2": null, "Easting": 83456.0, "Northing": 282278.0, "Processing": "Active" }, "geometry": { "type": "Point", "coordinates": [ -9.76857706372099, 53.777175628286329 ] } },
{ "type": "Feature", "properties": { "OBJECTID": 113, "BWID": "IEWEBWC340_0000_0400", "Name": "Carrowmore Beach, Louisburgh", "CODE": "PA3_0097", "Location": "Mayo", "LAName": "MAYO COUNTY COUNCIL", "Province": "Connaught", "WaterType": "Coastal Waterbody", "RBDCode2": null, "Easting": 79753.0, "Northing": 281689.0, "Processing": "Active" }, "geometry": { "type": "Point", "coordinates": [ -9.824486969700272, 53.771045255334393 ] } },
{ "type": "Feature", "properties": { "OBJECTID": 114, "BWID": "IEWEBWC350_0000_0100", "Name": "Bertra Beach, Murrisk", "CODE": "PA3_0098", "Location": "Mayo", "LAName": "MAYO COUNTY COUNCIL", "Province": "Connaught", "WaterType": "Coastal Waterbody", "RBDCode2": null, "Easting": 90566.0, "Northing": 283458.0, "Processing": "Active" }, "geometry": { "type": "Point", "coordinates": [ -9.661196699869338, 53.789314323583476 ] } },
{ "type": "Feature", "properties": { "OBJECTID": 115, "BWID": "IEWEBWC360_0000_0100", "Name": "Mullaghroe Beach, Belmullet", "CODE": "PA3_0103", "Location": "Mayo", "LAName": "MAYO COUNTY COUNCIL", "Province": "Connaught", "WaterType": "Coastal Waterbody", "RBDCode2": null, "Easting": 64411.0, "Northing": 323055.0, "Processing": "Active" }, "geometry": { "type": "Point", "coordinates": [ -10.075382441822844, 54.138673995759703 ] } },
{ "type": "Feature", "properties": { "OBJECTID": 116, "BWID": "IEWEBWC360_0000_0200", "Name": "Elly Bay, Belmullet", "CODE": "PA3_0104", "Location": "Mayo", "LAName": "MAYO COUNTY COUNCIL", "Province": "Connaught", "WaterType": "Coastal Waterbody", "RBDCode2": null, "Easting": 63715.0, "Northing": 325656.0, "Processing": "Active" }, "geometry": { "type": "Point", "coordinates": [ -10.087198676914257, 54.161841346822499 ] } },
{ "type": "Feature", "properties": { "OBJECTID": 117, "BWID": "IEWEBWC360_0000_0300", "Name": "Golden Strand, Achill Island", "CODE": "PA3_0101", "Location": "Mayo", "LAName": "MAYO COUNTY COUNCIL", "Province": "Connaught", "WaterType": "Coastal Waterbody", "RBDCode2": null, "Easting": 69296.0, "Northing": 309054.0, "Processing": "Active" }, "geometry": { "type": "Point", "coordinates": [ -9.994651718297126, 54.014231715551396 ] } },
{ "type": "Feature", "properties": { "OBJECTID": 118, "BWID": "IEWEBWC360_0000_0400", "Name": "Dugort Beach, Achill Island", "CODE": "PA3_0095", "Location": "Mayo", "LAName": "MAYO COUNTY COUNCIL", "Province": "Connaught", "WaterType": "Coastal Waterbody", "RBDCode2": null, "Easting": 67359.0, "Northing": 308942.0, "Processing": "Active" }, "geometry": { "type": "Point", "coordinates": [ -10.024131923966424, 54.012732498298021 ] } },
{ "type": "Feature", "properties": { "OBJECTID": 119, "BWID": "IEWEBWC400_0000_0100", "Name": "Rinroe Beach, Carrowtigue", "CODE": "PA3_0102", "Location": "Mayo", "LAName": "MAYO COUNTY COUNCIL", "Province": "Connaught", "WaterType": "Coastal Waterbody", "RBDCode2": null, "Easting": 80067.0, "Northing": 340811.0, "Processing": "Active" }, "geometry": { "type": "Point", "coordinates": [ -9.843063425300604, 54.301995137433678 ] } },
{ "type": "Feature", "properties": { "OBJECTID": 120, "BWID": "IEWEBWC420_0000_0100", "Name": "Enniscrone Beach", "CODE": "PA3_0109", "Location": "Sligo", "LAName": "SLIGO COUNTY COUNCIL", "Province": "Connaught", "WaterType": "Coastal Waterbody", "RBDCode2": null, "Easting": 128040.0, "Northing": 329830.0, "Processing": "Active" }, "geometry": { "type": "Point", "coordinates": [ -9.103705071696258, 54.212370032476315 ] } },
{ "type": "Feature", "properties": { "OBJECTID": 121, "BWID": "IEWEBWC420_0000_0200", "Name": "Ross Beach, Killala", "CODE": "PA3_0105", "Location": "Mayo", "LAName": "MAYO COUNTY COUNCIL", "Province": "Connaught", "WaterType": "Coastal Waterbody", "RBDCode2": null, "Easting": 121932.0, "Northing": 332113.0, "Processing": "Active" }, "geometry": { "type": "Point", "coordinates": [ -9.197896458169106, 54.231981823515369 ] } },
{ "type": "Feature", "properties": { "OBJECTID": 122, "BWID": "IEWEBWC430_0000_0100", "Name": "Streedagh Beach", "CODE": "PA3_0135", "Location": "Sligo", "LAName": "SLIGO COUNTY COUNCIL", "Province": "Connaught", "WaterType": "Coastal Waterbody", "RBDCode2": null, "Easting": 163710.0, "Northing": 350980.0, "Processing": "Active" }, "geometry": { "type": "Point", "coordinates": [ -8.559588846163528, 54.406128342311433 ] } },
{ "type": "Feature", "properties": { "OBJECTID": 123, "BWID": "IEWEBWC450_0000_0100", "Name": "Rosses Point Beach", "CODE": "PA3_0110", "Location": "Sligo", "LAName": "SLIGO COUNTY COUNCIL", "Province": "Connaught", "WaterType": "Coastal Waterbody", "RBDCode2": null, "Easting": 162660.0, "Northing": 340174.0, "Processing": "Active" }, "geometry": { "type": "Point", "coordinates": [ -8.57440245588624, 54.308981947452324 ] } },
{ "type": "Feature", "properties": { "OBJECTID": 124, "BWID": "IEWEBWC450_0000_0200", "Name": "Dunmoran Beach", "CODE": "PA3_0136", "Location": "Sligo", "LAName": "SLIGO COUNTY COUNCIL", "Province": "Connaught", "WaterType": "Coastal Waterbody", "RBDCode2": null, "Easting": 152670.0, "Northing": 335240.0, "Processing": "Active" }, "geometry": { "type": "Point", "coordinates": [ -8.727086660493057, 54.263832722020261 ] } },
{ "type": "Feature", "properties": { "OBJECTID": 125, "BWID": "IEWEBWL29_194_0100", "Name": "Loughrea Lake", "CODE": "PA3_0066", "Location": "Galway", "LAName": "GALWAY COUNTY COUNCIL", "Province": "Connaught", "WaterType": "Lake Waterbody", "RBDCode2": null, "Easting": 162397.0, "Northing": 215167.0, "Processing": "Active" }, "geometry": { "type": "Point", "coordinates": [ -8.563229334371099, 53.185907409597341 ] } },
{ "type": "Feature", "properties": { "OBJECTID": 126, "BWID": "IEWEBWT170_0700_0100", "Name": "Grattan Road Beach", "CODE": "PA3_0133", "Location": "Galway", "LAName": "GALWAY CITY COUNCIL", "Province": "Connaught", "WaterType": "Coastal Waterbody", "RBDCode2": null, "Easting": 128908.0, "Northing": 223718.0, "Processing": "Active" }, "geometry": { "type": "Point", "coordinates": [ -9.066015451573335, 53.259307104912395 ] } },
{ "type": "Feature", "properties": { "OBJECTID": 127, "BWID": "IEWEBWT170_0700_0200", "Name": "Ballyloughane Beach", "CODE": "PA3_0132", "Location": "Galway", "LAName": "GALWAY CITY COUNCIL", "Province": "Connaught", "WaterType": "Coastal Waterbody", "RBDCode2": null, "Easting": 132104.0, "Northing": 224573.0, "Processing": "Active" }, "geometry": { "type": "Point", "coordinates": [ -9.018315822744626, 53.267406521616827 ] } },
{ "type": "Feature", "properties": { "OBJECTID": 128, "BWID": "IEWEBWT180_0100_0100", "Name": "Céibh an Spidéil", "CODE": "PA3_0060", "Location": "Galway", "LAName": "GALWAY COUNTY COUNCIL", "Province": "Connaught", "WaterType": "Coastal Waterbody", "RBDCode2": null, "Easting": 112610.0, "Northing": 221910.0, "Processing": "Active" }, "geometry": { "type": "Point", "coordinates": [ -9.309673680774564, 53.24063384664894 ] } },
{ "type": "Feature", "properties": { "OBJECTID": 129, "BWID": "IEWEBWT270_0100_0100", "Name": "Clifden Beach", "CODE": "PA3_0063", "Location": "Galway", "LAName": "GALWAY COUNTY COUNCIL", "Province": "Connaught", "WaterType": "Coastal Waterbody", "RBDCode2": null, "Easting": 64130.0, "Northing": 250270.0, "Processing": "Active" }, "geometry": { "type": "Point", "coordinates": [ -10.047572693700047, 53.485102863771331 ] } },
{ "type": "Feature", "properties": { "OBJECTID": 130, "BWID": "IESHBWC070_0000_0350", "Name": "Seafield, Quilty", "CODE": "PA3_0143", "Location": "Clare", "LAName": "CLARE COUNTY COUNCIL", "Province": "Munster", "WaterType": "Coastal Waterbody", "RBDCode2": null, "Easting": 99324.999977400003, "Northing": 173856.99997, "Processing": "Active" }, "geometry": { "type": "Point", "coordinates": [ -9.493605371888902, 52.806651692502506 ] } },
{ "type": "Feature", "properties": { "OBJECTID": 131, "BWID": "IESEBWC050_0000_0300", "Name": "Carne Beach", "CODE": "PA3_0144", "Location": "Wexford", "LAName": "WEXFORD COUNTY COUNCIL", "Province": "Leinster", "WaterType": "Coastal Waterbody", "RBDCode2": null, "Easting": 312952.00002400001, "Northing": 106556.999973, "Processing": "Active" }, "geometry": { "type": "Point", "coordinates": [ -6.348707940150232, 52.19971054631317 ] } },
{ "type": "Feature", "properties": { "OBJECTID": 191, "BWID": "IEEABWC020_0000_0100", "Name": "Donabate, Balcarrick Beach", "CODE": "PA3_0050", "Location": "Dublin", "LAName": "FINGAL COUNTY COUNCIL", "Province": "Leinster", "WaterType": "Coastal Waterbody", "RBDCode2": null, "Easting": 325151.0, "Northing": 249004.0, "Processing": "Active" }, "geometry": { "type": "Point", "coordinates": [ -6.115785434162769, 53.476401685748129 ] } },
{ "type": "Feature", "properties": { "OBJECTID": 192, "BWID": "IEEABWC020_0000_0200", "Name": "Portrane, the Brook Beach", "CODE": "PA3_0055", "Location": "Dublin", "LAName": "FINGAL COUNTY COUNCIL", "Province": "Leinster", "WaterType": "Coastal Waterbody", "RBDCode2": null, "Easting": 325664.0, "Northing": 251104.0, "Processing": "Active" }, "geometry": { "type": "Point", "coordinates": [ -6.107223797321701, 53.495137360202378 ] } },
{ "type": "Feature", "properties": { "OBJECTID": 193, "BWID": "IEEABWC020_0000_0300", "Name": "Rush, South Beach", "CODE": "PA3_0054", "Location": "Dublin", "LAName": "FINGAL COUNTY COUNCIL", "Province": "Leinster", "WaterType": "Coastal Waterbody", "RBDCode2": null, "Easting": 326414.0, "Northing": 253372.0, "Processing": "Active" }, "geometry": { "type": "Point", "coordinates": [ -6.095016178519908, 53.515324032319199 ] } },
{ "type": "Feature", "properties": { "OBJECTID": 194, "BWID": "IEEABWC020_0000_0350", "Name": "Rush, North Beach", "CODE": "PA3_0140", "Location": "Dublin", "LAName": "FINGAL COUNTY COUNCIL", "Province": "Leinster", "WaterType": "Coastal Waterbody", "RBDCode2": null, "Easting": 327200.0001, "Northing": 254600.0, "Processing": "Active" }, "geometry": { "type": "Point", "coordinates": [ -6.082676200855094, 53.526161723138024 ] } },
{ "type": "Feature", "properties": { "OBJECTID": 195, "BWID": "IEEABWC020_0000_0400", "Name": "Loughshinny Beach", "CODE": "PA3_0053", "Location": "Dublin", "LAName": "FINGAL COUNTY COUNCIL", "Province": "Leinster", "WaterType": "Coastal Waterbody", "RBDCode2": null, "Easting": 327263.0, "Northing": 256842.0, "Processing": "Active" }, "geometry": { "type": "Point", "coordinates": [ -6.080816119562063, 53.546278885515463 ] } },
{ "type": "Feature", "properties": { "OBJECTID": 196, "BWID": "IEEABWC020_0000_0500", "Name": "Skerries, South Beach", "CODE": "PA3_0048", "Location": "Dublin", "LAName": "FINGAL COUNTY COUNCIL", "Province": "Leinster", "WaterType": "Coastal Waterbody", "RBDCode2": null, "Easting": 325700.0, "Northing": 260845.0, "Processing": "Active" }, "geometry": { "type": "Point", "coordinates": [ -6.102772913557216, 53.582600792907677 ] } },
{ "type": "Feature", "properties": { "OBJECTID": 197, "BWID": "IEEABWC020_0000_0600", "Name": "Balbriggan, Front Strand Beach", "CODE": "PA3_0049", "Location": "Dublin", "LAName": "FINGAL COUNTY COUNCIL", "Province": "Leinster", "WaterType": "Coastal Waterbody", "RBDCode2": null, "Easting": 320340.0, "Northing": 264059.0, "Processing": "Active" }, "geometry": { "type": "Point", "coordinates": [ -6.182419695058853, 53.612718710639371 ] } },
{ "type": "Feature", "properties": { "OBJECTID": 198, "BWID": "IEEABWC070_0000_0100", "Name": "Sutton, Burrow Beach", "CODE": "PA3_0047", "Location": "Dublin", "LAName": "FINGAL COUNTY COUNCIL", "Province": "Leinster", "WaterType": "Coastal Waterbody", "RBDCode2": null, "Easting": 326648.0, "Northing": 239773.0, "Processing": "Active" }, "geometry": { "type": "Point", "coordinates": [ -6.096960889062544, 53.3931507716688 ] } },
{ "type": "Feature", "properties": { "OBJECTID": 199, "BWID": "IEEABWC070_0000_0200", "Name": "Portmarnock, Velvet Strand Beach", "CODE": "PA3_0051", "Location": "Dublin", "LAName": "FINGAL COUNTY COUNCIL", "Province": "Leinster", "WaterType": "Coastal Waterbody", "RBDCode2": null, "Easting": 324873.0, "Northing": 244142.0, "Processing": "Active" }, "geometry": { "type": "Point", "coordinates": [ -6.121898399798287, 53.432806913841603 ] } },
{ "type": "Feature", "properties": { "OBJECTID": 201, "BWID": "IEEABWC070_0000_0500", "Name": "Claremont Beach", "CODE": "PA3_0137", "Location": "Dublin", "LAName": "FINGAL COUNTY COUNCIL", "Province": "Leinster", "WaterType": "Coastal Waterbody", "RBDCode2": null, "Easting": 328014.0137, "Northing": 239497.1557, "Processing": "Active" }, "geometry": { "type": "Point", "coordinates": [ -6.076551290301463, 53.39034471768958 ] } },
{ "type": "Feature", "properties": { "OBJECTID": 202, "BWID": "IEEABWC090_0000_0100", "Name": "Seapoint", "CODE": "PA3_0057", "Location": "Dublin", "LAName": "DUN LAOGHAIRE\/RATHDOWN CC", "Province": "Leinster", "WaterType": "Coastal Waterbody", "RBDCode2": null, "Easting": 322823.0, "Northing": 228959.0, "Processing": "Active" }, "geometry": { "type": "Point", "coordinates": [ -6.158616354903101, 53.296939931955833 ] } },
{ "type": "Feature", "properties": { "OBJECTID": 203, "BWID": "IEEABWC100_0000_0400", "Name": "Killiney", "CODE": "PA3_0056", "Location": "Dublin", "LAName": "DUN LAOGHAIRE\/RATHDOWN CC", "Province": "Leinster", "WaterType": "Coastal Waterbody", "RBDCode2": null, "Easting": 326088.0, "Northing": 224621.0, "Processing": "Active" }, "geometry": { "type": "Point", "coordinates": [ -6.111395042894954, 53.257217843944225 ] } },
{ "type": "Feature", "properties": { "OBJECTID": 204, "BWID": "IEEABWC090_0000_0050", "Name": "Sandycove", "CODE": "PA3_0147", "Location": "Dublin", "LAName": "DUN LAOGHAIRE\/RATHDOWN CC", "Province": "Leinster", "WaterType": "Coastal Waterbody", "RBDCode2": null, "Easting": 325774.0, "Northing": 228110.0, "Processing": "Active" }, "geometry": { "type": "Point", "coordinates": [ -6.114718596784428, 53.288624318533586 ] } },
{ "type": "Feature", "properties": { "OBJECTID": 205, "BWID": "IEEABWC100_0000_0450", "Name": "White Rock", "CODE": "PA3_0148", "Location": "Dublin", "LAName": "DUN LAOGHAIRE\/RATHDOWN CC", "Province": "Leinster", "WaterType": "Coastal Waterbody", "RBDCode2": null, "Easting": 326379.0, "Northing": 225608.0, "Processing": "Active" }, "geometry": { "type": "Point", "coordinates": [ -6.106645576283237, 53.266012166114386 ] } },
{ "type": "Feature", "properties": { "OBJECTID": 206, "BWID": "IEEABWC090_000_0040", "Name": "Forty Foot Bathing Place", "CODE": "PA3_0197", "Location": "Dublin", "LAName": "DUN LAOGHAIRE\/RATHDOWN CC", "Province": "Leinster", "WaterType": "Coastal Waterbody", "RBDCode2": null, "Easting": 325821.0, "Northing": 228214.0, "Processing": "Active" }, "geometry": { "type": "Point", "coordinates": [ -6.113973084275035, 53.28954711807836 ] } }
]
}
